{
"type": "FeatureCollection",
"features": [
{ "type": "Feature", "properties": { "name": "Gasenyi", "id": "15184cfc-f0f7-44b3-8f29-6fde3aa0556a", "network": { "id": "0bcd182a-fd3f-410e-b624-4c073d1ed260", "name": "Burundi Backbone System", "links": [ { "rel": "describedby", "href": "https://raw.githubusercontent.com/Open-Telecoms-Data/open-fibre-data-standard/0__3__0/schema/network-schema.json" } ] }, "featureType": "node" }, "geometry": { "type": "Point", "coordinates": [ 30.409277928164261, -2.665979427461552 ] } },
{ "type": "Feature", "properties": { "name": "Kirundo", "id": "448f49f7-630b-4bee-8047-62667688f359", "network": { "id": "0bcd182a-fd3f-410e-b624-4c073d1ed260", "name": "Burundi Backbone System", "links": [ { "rel": "describedby", "href": "https://raw.githubusercontent.com/Open-Telecoms-Data/open-fibre-data-standard/0__3__0/schema/network-schema.json" } ] }, "featureType": "node" }, "geometry": { "type": "Point", "coordinates": [ 30.108853167070219, -2.570332728961079 ] } },
{ "type": "Feature", "properties": { "name": "Kobero", "id": "df9981a9-979f-433a-949b-cf99995c969c", "network": { "id": "0bcd182a-fd3f-410e-b624-4c073d1ed260", "name": "Burundi Backbone System", "links": [ { "rel": "describedby", "href": "https://raw.githubusercontent.com/Open-Telecoms-Data/open-fibre-data-standard/0__3__0/schema/network-schema.json" } ] }, "featureType": "node" }, "geometry": { "type": "Point", "coordinates": [ 30.409277928164261, -2.665979427461552 ] } },
{ "type": "Feature", "properties": { "name": "Muyinga", "id": "3b876c9d-30fd-40dd-95e6-7fecc48b2271", "network": { "id": "0bcd182a-fd3f-410e-b624-4c073d1ed260", "name": "Burundi Backbone System", "links": [ { "rel": "describedby", "href": "https://raw.githubusercontent.com/Open-Telecoms-Data/open-fibre-data-standard/0__3__0/schema/network-schema.json" } ] }, "featureType": "node" }, "geometry": { "type": "Point", "coordinates": [ 30.358118681954775, -2.801192282013271 ] } },
{ "type": "Feature", "properties": { "name": "Karuzi", "id": "58c4e8e3-e12b-43de-bc9f-484da52a9065", "network": { "id": "0bcd182a-fd3f-410e-b624-4c073d1ed260", "name": "Burundi Backbone System", "links": [ { "rel": "describedby", "href": "https://raw.githubusercontent.com/Open-Telecoms-Data/open-fibre-data-standard/0__3__0/schema/network-schema.json" } ] }, "featureType": "node" }, "geometry": { "type": "Point", "coordinates": [ 30.1411719090034, -3.090321225937227 ] } },
{ "type": "Feature", "properties": { "name": "Ngozi", "id": "343ef07e-5370-4947-976e-ea29d9bb0fe2", "network": { "id": "0bcd182a-fd3f-410e-b624-4c073d1ed260", "name": "Burundi Backbone System", "links": [ { "rel": "describedby", "href": "https://raw.githubusercontent.com/Open-Telecoms-Data/open-fibre-data-standard/0__3__0/schema/network-schema.json" } ] }, "featureType": "node" }, "geometry": { "type": "Point", "coordinates": [ 29.842167254846341, -2.913730599922696 ] } },
{ "type": "Feature", "properties": { "name": "Kayanza", "id": "65148174-6038-4b67-ad8e-0384a53939e2", "network": { "id": "0bcd182a-fd3f-410e-b624-4c073d1ed260", "name": "Burundi Backbone System", "links": [ { "rel": "describedby", "href": "https://raw.githubusercontent.com/Open-Telecoms-Data/open-fibre-data-standard/0__3__0/schema/network-schema.json" } ] }, "featureType": "node" }, "geometry": { "type": "Point", "coordinates": [ 29.630231584118135, -2.930214320152236 ] } },
{ "type": "Feature", "properties": { "name": "Cibitoke", "id": "2291c174-9e94-4ed8-a25b-6cab0d6308a6", "network": { "id": "0bcd182a-fd3f-410e-b624-4c073d1ed260", "name": "Burundi Backbone System", "links": [ { "rel": "describedby", "href": "https://raw.githubusercontent.com/Open-Telecoms-Data/open-fibre-data-standard/0__3__0/schema/network-schema.json" } ] }, "featureType": "node" }, "geometry": { "type": "Point", "coordinates": [ 29.129472688511548, -2.887833689369506 ] } },
{ "type": "Feature", "properties": { "name": "Bubanza", "id": "4a1a0909-b11d-4159-a898-0419ce7ae4bf", "network": { "id": "0bcd182a-fd3f-410e-b624-4c073d1ed260", "name": "Burundi Backbone System", "links": [ { "rel": "describedby", "href": "https://raw.githubusercontent.com/Open-Telecoms-Data/open-fibre-data-standard/0__3__0/schema/network-schema.json" } ] }, "featureType": "node" }, "geometry": { "type": "Point", "coordinates": [ 29.395766666896762, -3.085977963151972 ] } },
{ "type": "Feature", "properties": { "name": "Muramvya", "id": "dc9b5daf-abf3-46a4-83d8-d82684a270c4", "network": { "id": "0bcd182a-fd3f-410e-b624-4c073d1ed260", "name": "Burundi Backbone System", "links": [ { "rel": "describedby", "href": "https://raw.githubusercontent.com/Open-Telecoms-Data/open-fibre-data-standard/0__3__0/schema/network-schema.json" } ] }, "featureType": "node" }, "geometry": { "type": "Point", "coordinates": [ 29.617871878513679, -3.267536910903535 ] } },
{ "type": "Feature", "properties": { "name": "Ruyigi", "id": "83dfd667-5ab2-4ccc-b7a1-8e97c5264189", "network": { "id": "0bcd182a-fd3f-410e-b624-4c073d1ed260", "name": "Burundi Backbone System", "links": [ { "rel": "describedby", "href": "https://raw.githubusercontent.com/Open-Telecoms-Data/open-fibre-data-standard/0__3__0/schema/network-schema.json" } ] }, "featureType": "node" }, "geometry": { "type": "Point", "coordinates": [ 30.246183792856371, -3.466731350116496 ] } },
{ "type": "Feature", "properties": { "name": "Mwaro", "id": "49f2face-857b-4992-bf40-385041367cde", "network": { "id": "0bcd182a-fd3f-410e-b624-4c073d1ed260", "name": "Burundi Backbone System", "links": [ { "rel": "describedby", "href": "https://raw.githubusercontent.com/Open-Telecoms-Data/open-fibre-data-standard/0__3__0/schema/network-schema.json" } ] }, "featureType": "node" }, "geometry": { "type": "Point", "coordinates": [ 29.704207675394198, -3.514279750275264 ] } },
{ "type": "Feature", "properties": { "name": "Bujumbura", "id": "a406dba1-2b79-4082-a3f9-a85fcd3a141d", "network": { "id": "0bcd182a-fd3f-410e-b624-4c073d1ed260", "name": "Burundi Backbone System", "links": [ { "rel": "describedby", "href": "https://raw.githubusercontent.com/Open-Telecoms-Data/open-fibre-data-standard/0__3__0/schema/network-schema.json" } ] }, "featureType": "node" }, "geometry": { "type": "Point", "coordinates": [ 29.364698042686747, -3.363172416377989 ] } },
{ "type": "Feature", "properties": { "name": "Gitega", "id": "27a3baab-feaf-44a8-8125-815b63223e1e", "network": { "id": "0bcd182a-fd3f-410e-b624-4c073d1ed260", "name": "Burundi Backbone System", "links": [ { "rel": "describedby", "href": "https://raw.githubusercontent.com/Open-Telecoms-Data/open-fibre-data-standard/0__3__0/schema/network-schema.json" } ] }, "featureType": "node" }, "geometry": { "type": "Point", "coordinates": [ 29.925400738228586, -3.426537665996933 ] } },
{ "type": "Feature", "properties": { "name": "Mugamba", "id": "cfb6de97-bc51-43ee-b76a-a32924be04d0", "network": { "id": "0bcd182a-fd3f-410e-b624-4c073d1ed260", "name": "Burundi Backbone System", "links": [ { "rel": "describedby", "href": "https://raw.githubusercontent.com/Open-Telecoms-Data/open-fibre-data-standard/0__3__0/schema/network-schema.json" } ] }, "featureType": "node" }, "geometry": { "type": "Point", "coordinates": [ 29.582566478523923, -3.661725942527292 ] } },
{ "type": "Feature", "properties": { "name": "Matana", "id": "8eb25246-576e-42bc-a18d-7953592231fe", "network": { "id": "0bcd182a-fd3f-410e-b624-4c073d1ed260", "name": "Burundi Backbone System", "links": [ { "rel": "describedby", "href": "https://raw.githubusercontent.com/Open-Telecoms-Data/open-fibre-data-standard/0__3__0/schema/network-schema.json" } ] }, "featureType": "node" }, "geometry": { "type": "Point", "coordinates": [ 29.6888348008974, -3.769027024248509 ] } },
{ "type": "Feature", "properties": { "name": "Rumonge", "id": "6f4824ed-feeb-43be-9e4b-fe0d4528438e", "network": { "id": "0bcd182a-fd3f-410e-b624-4c073d1ed260", "name": "Burundi Backbone System", "links": [ { "rel": "describedby", "href": "https://raw.githubusercontent.com/Open-Telecoms-Data/open-fibre-data-standard/0__3__0/schema/network-schema.json" } ] }, "featureType": "node" }, "geometry": { "type": "Point", "coordinates": [ 29.402078579687622, -3.913650227060979 ] } },
{ "type": "Feature", "properties": { "name": "Gatumba", "id": "7d0c77e3-81ed-4b4c-a483-a81f732d5a80", "network": { "id": "0bcd182a-fd3f-410e-b624-4c073d1ed260", "name": "Burundi Backbone System", "links": [ { "rel": "describedby", "href": "https://raw.githubusercontent.com/Open-Telecoms-Data/open-fibre-data-standard/0__3__0/schema/network-schema.json" } ] }, "featureType": "node" }, "geometry": { "type": "Point", "coordinates": [ 29.25277857068421, -3.335762690420007 ] } },
{ "type": "Feature", "properties": { "name": "Rutana", "id": "321afa0b-748c-4c36-a5e0-1b47736f6419", "network": { "id": "0bcd182a-fd3f-410e-b624-4c073d1ed260", "name": "Burundi Backbone System", "links": [ { "rel": "describedby", "href": "https://raw.githubusercontent.com/Open-Telecoms-Data/open-fibre-data-standard/0__3__0/schema/network-schema.json" } ] }, "featureType": "node" }, "geometry": { "type": "Point", "coordinates": [ 29.985454728895125, -3.926162992615712 ] } },
{ "type": "Feature", "properties": { "name": "Makamba", "id": "a0141d9f-5f4c-4c5c-83cb-9ce4b88154d6", "network": { "id": "0bcd182a-fd3f-410e-b624-4c073d1ed260", "name": "Burundi Backbone System", "links": [ { "rel": "describedby", "href": "https://raw.githubusercontent.com/Open-Telecoms-Data/open-fibre-data-standard/0__3__0/schema/network-schema.json" } ] }, "featureType": "node" }, "geometry": { "type": "Point", "coordinates": [ 29.791898968513433, -4.198660431211588 ] } },
{ "type": "Feature", "properties": { "name": "Nyanza-Lac", "id": "36d19c5e-bb35-4a6a-b1ce-3d7d5c726e6a", "network": { "id": "0bcd182a-fd3f-410e-b624-4c073d1ed260", "name": "Burundi Backbone System", "links": [ { "rel": "describedby", "href": "https://raw.githubusercontent.com/Open-Telecoms-Data/open-fibre-data-standard/0__3__0/schema/network-schema.json" } ] }, "featureType": "node" }, "geometry": { "type": "Point", "coordinates": [ 29.603570032747193, -4.338528376274334 ] } },
{ "type": "Feature", "properties": { "name": "Cankuzo", "id": "4d2c845c-f0a0-4dfe-b0ce-6e24141e0202", "network": { "id": "0bcd182a-fd3f-410e-b624-4c073d1ed260", "name": "Burundi Backbone System", "links": [ { "rel": "describedby", "href": "https://raw.githubusercontent.com/Open-Telecoms-Data/open-fibre-data-standard/0__3__0/schema/network-schema.json" } ] }, "featureType": "node" }, "geometry": { "type": "Point", "coordinates": [ 30.508146921650791, -3.256503311368667 ] } },
{ "type": "Feature", "properties": { "name": "Auto generated missing node", "id": "e7f23edb-ee46-4851-bf24-4edf58c2e973", "network": { "id": "0bcd182a-fd3f-410e-b624-4c073d1ed260", "name": "Burundi Backbone System", "links": [ { "rel": "describedby", "href": "https://raw.githubusercontent.com/Open-Telecoms-Data/open-fibre-data-standard/0__3__0/schema/network-schema.json" } ] }, "featureType": "node" }, "geometry": { "type": "Point", "coordinates": [ 29.666696529752329, -2.783692304697358 ] } },
{ "type": "Feature", "properties": { "name": "Auto generated missing node", "id": "8e1d2269-4bc0-4cd8-99c7-25e2661ebb97", "network": { "id": "0bcd182a-fd3f-410e-b624-4c073d1ed260", "name": "Burundi Backbone System", "links": [ { "rel": "describedby", "href": "https://raw.githubusercontent.com/Open-Telecoms-Data/open-fibre-data-standard/0__3__0/schema/network-schema.json" } ] }, "featureType": "node" }, "geometry": { "type": "Point", "coordinates": [ 29.619456076061951, -2.916496771763684 ] } },
{ "type": "Feature", "properties": { "name": "Auto generated missing node", "id": "717fc1be-3e9c-4146-8b53-e655a4b30b90", "network": { "id": "0bcd182a-fd3f-410e-b624-4c073d1ed260", "name": "Burundi Backbone System", "links": [ { "rel": "describedby", "href": "https://raw.githubusercontent.com/Open-Telecoms-Data/open-fibre-data-standard/0__3__0/schema/network-schema.json" } ] }, "featureType": "node" }, "geometry": { "type": "Point", "coordinates": [ 30.220209986478292, -2.370510336765283 ] } },
{ "type": "Feature", "properties": { "name": "Auto generated missing node", "id": "cd88eb53-9e06-41c6-843c-c991eaaac5c4", "network": { "id": "0bcd182a-fd3f-410e-b624-4c073d1ed260", "name": "Burundi Backbone System", "links": [ { "rel": "describedby", "href": "https://raw.githubusercontent.com/Open-Telecoms-Data/open-fibre-data-standard/0__3__0/schema/network-schema.json" } ] }, "featureType": "node" }, "geometry": { "type": "Point", "coordinates": [ 30.10089032737805, -2.811464714809475 ] } },
{ "type": "Feature", "properties": { "name": "Auto generated missing node", "id": "1d313401-16a9-4f17-8287-b81776e10275", "network": { "id": "0bcd182a-fd3f-410e-b624-4c073d1ed260", "name": "Burundi Backbone System", "links": [ { "rel": "describedby", "href": "https://raw.githubusercontent.com/Open-Telecoms-Data/open-fibre-data-standard/0__3__0/schema/network-schema.json" } ] }, "featureType": "node" }, "geometry": { "type": "Point", "coordinates": [ 30.331094744667361, -2.859930530435567 ] } },
{ "type": "Feature", "properties": { "name": "Auto generated missing node", "id": "092342f8-76b0-4fca-8a1c-6aa99f2f8000", "network": { "id": "0bcd182a-fd3f-410e-b624-4c073d1ed260", "name": "Burundi Backbone System", "links": [ { "rel": "describedby", "href": "https://raw.githubusercontent.com/Open-Telecoms-Data/open-fibre-data-standard/0__3__0/schema/network-schema.json" } ] }, "featureType": "node" }, "geometry": { "type": "Point", "coordinates": [ 29.545909395332568, -3.290747073384802 ] } },
{ "type": "Feature", "properties": { "name": "Auto generated missing node", "id": "e1befcf3-c3e0-4fb3-b180-59dab584d545", "network": { "id": "0bcd182a-fd3f-410e-b624-4c073d1ed260", "name": "Burundi Backbone System", "links": [ { "rel": "describedby", "href": "https://raw.githubusercontent.com/Open-Telecoms-Data/open-fibre-data-standard/0__3__0/schema/network-schema.json" } ] }, "featureType": "node" }, "geometry": { "type": "Point", "coordinates": [ 29.929123631382389, -3.423032642720301 ] } },
{ "type": "Feature", "properties": { "name": "Auto generated missing node", "id": "6378992e-717e-44ca-9ace-2fe2a5a967c3", "network": { "id": "0bcd182a-fd3f-410e-b624-4c073d1ed260", "name": "Burundi Backbone System", "links": [ { "rel": "describedby", "href": "https://raw.githubusercontent.com/Open-Telecoms-Data/open-fibre-data-standard/0__3__0/schema/network-schema.json" } ] }, "featureType": "node" }, "geometry": { "type": "Point", "coordinates": [ 29.953728905504612, -3.466962103148376 ] } },
{ "type": "Feature", "properties": { "name": "Auto generated missing node", "id": "d3b54b2e-c8bf-4cc2-8160-26e3b89792ab", "network": { "id": "0bcd182a-fd3f-410e-b624-4c073d1ed260", "name": "Burundi Backbone System", "links": [ { "rel": "describedby", "href": "https://raw.githubusercontent.com/Open-Telecoms-Data/open-fibre-data-standard/0__3__0/schema/network-schema.json" } ] }, "featureType": "node" }, "geometry": { "type": "Point", "coordinates": [ 30.571457147284459, -3.288306459728859 ] } },
{ "type": "Feature", "properties": { "name": "Auto generated missing node", "id": "97556906-84e2-4625-a6f1-09bd22ac1ed1", "network": { "id": "0bcd182a-fd3f-410e-b624-4c073d1ed260", "name": "Burundi Backbone System", "links": [ { "rel": "describedby", "href": "https://raw.githubusercontent.com/Open-Telecoms-Data/open-fibre-data-standard/0__3__0/schema/network-schema.json" } ] }, "featureType": "node" }, "geometry": { "type": "Point", "coordinates": [ 29.597027790160201, -3.526728917044491 ] } },
{ "type": "Feature", "properties": { "name": "Auto generated missing node", "id": "1edb03d4-48dd-463d-95ab-0ad5b70a6a88", "network": { "id": "0bcd182a-fd3f-410e-b624-4c073d1ed260", "name": "Burundi Backbone System", "links": [ { "rel": "describedby", "href": "https://raw.githubusercontent.com/Open-Telecoms-Data/open-fibre-data-standard/0__3__0/schema/network-schema.json" } ] }, "featureType": "node" }, "geometry": { "type": "Point", "coordinates": [ 29.763905876682269, -4.438298449177466 ] } },
{ "type": "Feature", "properties": { "name": "Auto generated missing node", "id": "b380757d-dee0-4f4f-b8be-1407106043c0", "network": { "id": "0bcd182a-fd3f-410e-b624-4c073d1ed260", "name": "Burundi Backbone System", "links": [ { "rel": "describedby", "href": "https://raw.githubusercontent.com/Open-Telecoms-Data/open-fibre-data-standard/0__3__0/schema/network-schema.json" } ] }, "featureType": "node" }, "geometry": { "type": "Point", "coordinates": [ 29.040171920727271, -2.737212979411678 ] } },
{ "type": "Feature", "properties": { "name": "Auto generated missing node", "id": "234cbd70-9926-456b-b6c5-326aaf95bc66", "network": { "id": "0bcd182a-fd3f-410e-b624-4c073d1ed260", "name": "Burundi Backbone System", "links": [ { "rel": "describedby", "href": "https://raw.githubusercontent.com/Open-Telecoms-Data/open-fibre-data-standard/0__3__0/schema/network-schema.json" } ] }, "featureType": "node" }, "geometry": { "type": "Point", "coordinates": [ 29.776337358317939, -4.27040885337764 ] } },
{ "type": "Feature", "properties": { "name": "Auto generated missing node", "id": "84202fe3-bc92-45e1-9ee2-3dfe102e3e0c", "network": { "id": "0bcd182a-fd3f-410e-b624-4c073d1ed260", "name": "Burundi Backbone System", "links": [ { "rel": "describedby", "href": "https://raw.githubusercontent.com/Open-Telecoms-Data/open-fibre-data-standard/0__3__0/schema/network-schema.json" } ] }, "featureType": "node" }, "geometry": { "type": "Point", "coordinates": [ 29.453484695319879, -4.006018707244064 ] } },
{ "type": "Feature", "properties": { "name": "Auto generated missing node", "id": "be3e1468-0c47-4217-9ecc-f5d698126901", "network": { "id": "0bcd182a-fd3f-410e-b624-4c073d1ed260", "name": "Burundi Backbone System", "links": [ { "rel": "describedby", "href": "https://raw.githubusercontent.com/Open-Telecoms-Data/open-fibre-data-standard/0__3__0/schema/network-schema.json" } ] }, "featureType": "node" }, "geometry": { "type": "Point", "coordinates": [ 29.766404473995969, -3.820529648148355 ] } },
{ "type": "Feature", "properties": { "name": "Auto generated missing node", "id": "ab6284df-443a-45c6-8175-bd9f4ea4fc7c", "network": { "id": "0bcd182a-fd3f-410e-b624-4c073d1ed260", "name": "Burundi Backbone System", "links": [ { "rel": "describedby", "href": "https://raw.githubusercontent.com/Open-Telecoms-Data/open-fibre-data-standard/0__3__0/schema/network-schema.json" } ] }, "featureType": "node" }, "geometry": { "type": "Point", "coordinates": [ 29.213597069658359, -3.338899612297326 ] } },
{ "type": "Feature", "properties": { "name": "Auto generated missing node", "id": "fd50edaf-5f94-4681-a082-3256141c9048", "network": { "id": "0bcd182a-fd3f-410e-b624-4c073d1ed260", "name": "Burundi Backbone System", "links": [ { "rel": "describedby", "href": "https://raw.githubusercontent.com/Open-Telecoms-Data/open-fibre-data-standard/0__3__0/schema/network-schema.json" } ] }, "featureType": "node" }, "geometry": { "type": "Point", "coordinates": [ 29.400442569138711, -3.082841949979823 ] } }
]
}
