{
"type": "FeatureCollection",
"features": [
{ "type": "Feature", "properties": { "name": "Kampala", "id": "e33265f8-7ed6-4f5b-827d-93ef64276d8a", "network": { "id": "3e214b25-83cc-4567-8ff8-95030b8621eb", "name": "Liquid Telecom Uganda", "links": [ { "rel": "describedby", "href": "https://raw.githubusercontent.com/Open-Telecoms-Data/open-fibre-data-standard/0__3__0/schema/network-schema.json" } ] }, "featureType": "node" }, "geometry": { "type": "Point", "coordinates": [ 32.570340321207098, 0.330581929673162 ] } },
{ "type": "Feature", "properties": { "name": "Karuma", "id": "8eef5888-99e2-4d10-9aac-ca8a556e96a7", "network": { "id": "3e214b25-83cc-4567-8ff8-95030b8621eb", "name": "Liquid Telecom Uganda", "links": [ { "rel": "describedby", "href": "https://raw.githubusercontent.com/Open-Telecoms-Data/open-fibre-data-standard/0__3__0/schema/network-schema.json" } ] }, "featureType": "node" }, "geometry": { "type": "Point", "coordinates": [ 32.253830413896083, 2.236907442602469 ] } },
{ "type": "Feature", "properties": { "name": "Masaka", "id": "ee36cec2-db9d-4fb3-8bd8-148c777b8cc7", "network": { "id": "3e214b25-83cc-4567-8ff8-95030b8621eb", "name": "Liquid Telecom Uganda", "links": [ { "rel": "describedby", "href": "https://raw.githubusercontent.com/Open-Telecoms-Data/open-fibre-data-standard/0__3__0/schema/network-schema.json" } ] }, "featureType": "node" }, "geometry": { "type": "Point", "coordinates": [ 31.74526903616238, -0.324586734449361 ] } },
{ "type": "Feature", "properties": { "name": "Masindi", "id": "e11feedf-d5e4-4449-931f-3466f0cbf20a", "network": { "id": "3e214b25-83cc-4567-8ff8-95030b8621eb", "name": "Liquid Telecom Uganda", "links": [ { "rel": "describedby", "href": "https://raw.githubusercontent.com/Open-Telecoms-Data/open-fibre-data-standard/0__3__0/schema/network-schema.json" } ] }, "featureType": "node" }, "geometry": { "type": "Point", "coordinates": [ 31.721221032726927, 1.683817147844398 ] } },
{ "type": "Feature", "properties": { "name": "Mbale", "id": "b522d1dc-1fc1-4fc6-8871-e17bd9844eb3", "network": { "id": "3e214b25-83cc-4567-8ff8-95030b8621eb", "name": "Liquid Telecom Uganda", "links": [ { "rel": "describedby", "href": "https://raw.githubusercontent.com/Open-Telecoms-Data/open-fibre-data-standard/0__3__0/schema/network-schema.json" } ] }, "featureType": "node" }, "geometry": { "type": "Point", "coordinates": [ 34.181448640502502, 1.078096218107539 ] } },
{ "type": "Feature", "properties": { "name": "Mbarara", "id": "0144f55b-ff17-4b40-952a-54ec4e44c6ed", "network": { "id": "3e214b25-83cc-4567-8ff8-95030b8621eb", "name": "Liquid Telecom Uganda", "links": [ { "rel": "describedby", "href": "https://raw.githubusercontent.com/Open-Telecoms-Data/open-fibre-data-standard/0__3__0/schema/network-schema.json" } ] }, "featureType": "node" }, "geometry": { "type": "Point", "coordinates": [ 30.632163476096945, -0.588317267833737 ] } },
{ "type": "Feature", "properties": { "name": "Nimule", "id": "d39d1261-aaf9-49ba-9601-74f5e9fbc390", "network": { "id": "3e214b25-83cc-4567-8ff8-95030b8621eb", "name": "Liquid Telecom Uganda", "links": [ { "rel": "describedby", "href": "https://raw.githubusercontent.com/Open-Telecoms-Data/open-fibre-data-standard/0__3__0/schema/network-schema.json" } ] }, "featureType": "node" }, "geometry": { "type": "Point", "coordinates": [ 32.063125997489969, 3.58745430031908 ] } },
{ "type": "Feature", "properties": { "name": "Tororo", "id": "b4186371-af1f-4bbf-9174-e8e7778cc52a", "network": { "id": "3e214b25-83cc-4567-8ff8-95030b8621eb", "name": "Liquid Telecom Uganda", "links": [ { "rel": "describedby", "href": "https://raw.githubusercontent.com/Open-Telecoms-Data/open-fibre-data-standard/0__3__0/schema/network-schema.json" } ] }, "featureType": "node" }, "geometry": { "type": "Point", "coordinates": [ 34.190967894627185, 0.688744302780671 ] } },
{ "type": "Feature", "properties": { "name": "Auto generated missing node", "id": "76c8ebee-093a-4f27-8304-20ee5041d548", "network": { "id": "3e214b25-83cc-4567-8ff8-95030b8621eb", "name": "Liquid Telecom Uganda", "links": [ { "rel": "describedby", "href": "https://raw.githubusercontent.com/Open-Telecoms-Data/open-fibre-data-standard/0__3__0/schema/network-schema.json" } ] }, "featureType": "node" }, "geometry": { "type": "Point", "coordinates": [ 30.0138547942401, -1.43475842156401 ] } },
{ "type": "Feature", "properties": { "name": "Auto generated missing node", "id": "f4a8bf52-d3b2-46b2-aa2b-832e5451fb83", "network": { "id": "3e214b25-83cc-4567-8ff8-95030b8621eb", "name": "Liquid Telecom Uganda", "links": [ { "rel": "describedby", "href": "https://raw.githubusercontent.com/Open-Telecoms-Data/open-fibre-data-standard/0__3__0/schema/network-schema.json" } ] }, "featureType": "node" }, "geometry": { "type": "Point", "coordinates": [ 32.569820247984602, 0.332533123220784 ] } }
]
}
