{
"type": "FeatureCollection",
"name": "Togo_Telecom_ofds-nodes_23jun2025",
"features": [
{ "type": "Feature", "properties": { "name": "Adeta", "id": "9ad12f6f-52e7-40eb-8744-8fac2fd85f43", "network": { "id": "da7b4206-e35e-4d49-bd89-fdc37a35ca21", "name": "Togo Telecom", "links": [ { "rel": "describedby", "href": "https://raw.githubusercontent.com/Open-Telecoms-Data/open-fibre-data-standard/0__3__0/schema/network-schema.json" } ] }, "featureType": "node" }, "geometry": { "type": "Point", "coordinates": [ 0.727576981121491, 7.123989428126123 ] } },
{ "type": "Feature", "properties": { "name": "Agou", "id": "bfd56571-c63a-49fa-b85c-6e3f5608febd", "network": { "id": "da7b4206-e35e-4d49-bd89-fdc37a35ca21", "name": "Togo Telecom", "links": [ { "rel": "describedby", "href": "https://raw.githubusercontent.com/Open-Telecoms-Data/open-fibre-data-standard/0__3__0/schema/network-schema.json" } ] }, "featureType": "node" }, "geometry": { "type": "Point", "coordinates": [ 0.715968882480961, 6.849085152590932 ] } },
{ "type": "Feature", "properties": { "name": "Amlame", "id": "9ed5a6fd-37a1-453f-b888-8c4fa4e0b6c2", "network": { "id": "da7b4206-e35e-4d49-bd89-fdc37a35ca21", "name": "Togo Telecom", "links": [ { "rel": "describedby", "href": "https://raw.githubusercontent.com/Open-Telecoms-Data/open-fibre-data-standard/0__3__0/schema/network-schema.json" } ] }, "featureType": "node" }, "geometry": { "type": "Point", "coordinates": [ 0.903589616905043, 7.461726304831137 ] } },
{ "type": "Feature", "properties": { "name": "Aneho", "id": "f07310f8-c37d-4b19-8480-bc98604da757", "network": { "id": "da7b4206-e35e-4d49-bd89-fdc37a35ca21", "name": "Togo Telecom", "links": [ { "rel": "describedby", "href": "https://raw.githubusercontent.com/Open-Telecoms-Data/open-fibre-data-standard/0__3__0/schema/network-schema.json" } ] }, "featureType": "node" }, "geometry": { "type": "Point", "coordinates": [ 1.583495986926655, 6.226947674556502 ] } },
{ "type": "Feature", "properties": { "name": "Anie", "id": "6f791c11-9869-4057-a655-6cee268bdaff", "network": { "id": "da7b4206-e35e-4d49-bd89-fdc37a35ca21", "name": "Togo Telecom", "links": [ { "rel": "describedby", "href": "https://raw.githubusercontent.com/Open-Telecoms-Data/open-fibre-data-standard/0__3__0/schema/network-schema.json" } ] }, "featureType": "node" }, "geometry": { "type": "Point", "coordinates": [ 1.188638026668861, 7.758879475689929 ] } },
{ "type": "Feature", "properties": { "name": "Atakpame", "id": "ef95afe1-fceb-4585-af48-f80b002aab74", "network": { "id": "da7b4206-e35e-4d49-bd89-fdc37a35ca21", "name": "Togo Telecom", "links": [ { "rel": "describedby", "href": "https://raw.githubusercontent.com/Open-Telecoms-Data/open-fibre-data-standard/0__3__0/schema/network-schema.json" } ] }, "featureType": "node" }, "geometry": { "type": "Point", "coordinates": [ 1.13112229586385, 7.530333118781844 ] } },
{ "type": "Feature", "properties": { "name": "Barkoassi", "id": "321cef9b-4a72-433b-af14-43bf661771c5", "network": { "id": "da7b4206-e35e-4d49-bd89-fdc37a35ca21", "name": "Togo Telecom", "links": [ { "rel": "describedby", "href": "https://raw.githubusercontent.com/Open-Telecoms-Data/open-fibre-data-standard/0__3__0/schema/network-schema.json" } ] }, "featureType": "node" }, "geometry": { "type": "Point", "coordinates": [ 0.310304193234782, 10.549714936023623 ] } },
{ "type": "Feature", "properties": { "name": "Bassar", "id": "ccf6cb08-a1fc-4b0e-ab75-45c68d3d188d", "network": { "id": "da7b4206-e35e-4d49-bd89-fdc37a35ca21", "name": "Togo Telecom", "links": [ { "rel": "describedby", "href": "https://raw.githubusercontent.com/Open-Telecoms-Data/open-fibre-data-standard/0__3__0/schema/network-schema.json" } ] }, "featureType": "node" }, "geometry": { "type": "Point", "coordinates": [ 0.785260901759271, 9.260534707020895 ] } },
{ "type": "Feature", "properties": { "name": "Blitta", "id": "8ef4baff-90d1-478a-89f6-ed1c3c60ea3e", "network": { "id": "da7b4206-e35e-4d49-bd89-fdc37a35ca21", "name": "Togo Telecom", "links": [ { "rel": "describedby", "href": "https://raw.githubusercontent.com/Open-Telecoms-Data/open-fibre-data-standard/0__3__0/schema/network-schema.json" } ] }, "featureType": "node" }, "geometry": { "type": "Point", "coordinates": [ 0.995581512301261, 8.336322639207765 ] } },
{ "type": "Feature", "properties": { "name": "Cinkassé", "id": "48855bfb-0454-4eb7-8b8d-2262959eaf68", "network": { "id": "da7b4206-e35e-4d49-bd89-fdc37a35ca21", "name": "Togo Telecom", "links": [ { "rel": "describedby", "href": "https://raw.githubusercontent.com/Open-Telecoms-Data/open-fibre-data-standard/0__3__0/schema/network-schema.json" } ] }, "featureType": "node" }, "geometry": { "type": "Point", "coordinates": [ 0.020511109473074, 11.09724757806689 ] } },
{ "type": "Feature", "properties": { "name": "Dapaong", "id": "dccc596f-890b-4e56-a0e1-99a6f55f174e", "network": { "id": "da7b4206-e35e-4d49-bd89-fdc37a35ca21", "name": "Togo Telecom", "links": [ { "rel": "describedby", "href": "https://raw.githubusercontent.com/Open-Telecoms-Data/open-fibre-data-standard/0__3__0/schema/network-schema.json" } ] }, "featureType": "node" }, "geometry": { "type": "Point", "coordinates": [ 0.207047168326913, 10.867611403403052 ] } },
{ "type": "Feature", "properties": { "name": "Kabou", "id": "cef97663-fa47-4c04-bbe9-90b49a35be08", "network": { "id": "da7b4206-e35e-4d49-bd89-fdc37a35ca21", "name": "Togo Telecom", "links": [ { "rel": "describedby", "href": "https://raw.githubusercontent.com/Open-Telecoms-Data/open-fibre-data-standard/0__3__0/schema/network-schema.json" } ] }, "featureType": "node" }, "geometry": { "type": "Point", "coordinates": [ 0.811151299652836, 9.454846628627291 ] } },
{ "type": "Feature", "properties": { "name": "Kante", "id": "8261cc26-b5b9-4102-ac06-5e765b3d835d", "network": { "id": "da7b4206-e35e-4d49-bd89-fdc37a35ca21", "name": "Togo Telecom", "links": [ { "rel": "describedby", "href": "https://raw.githubusercontent.com/Open-Telecoms-Data/open-fibre-data-standard/0__3__0/schema/network-schema.json" } ] }, "featureType": "node" }, "geometry": { "type": "Point", "coordinates": [ 1.049214254239045, 9.959014938493397 ] } },
{ "type": "Feature", "properties": { "name": "Kara", "id": "c69a68eb-9c1f-4702-ae35-1d7e91cab7fd", "network": { "id": "da7b4206-e35e-4d49-bd89-fdc37a35ca21", "name": "Togo Telecom", "links": [ { "rel": "describedby", "href": "https://raw.githubusercontent.com/Open-Telecoms-Data/open-fibre-data-standard/0__3__0/schema/network-schema.json" } ] }, "featureType": "node" }, "geometry": { "type": "Point", "coordinates": [ 1.190761552244804, 9.535230524968958 ] } },
{ "type": "Feature", "properties": { "name": "Keve", "id": "c63d0fb5-4012-483c-9892-990f9f55136d", "network": { "id": "da7b4206-e35e-4d49-bd89-fdc37a35ca21", "name": "Togo Telecom", "links": [ { "rel": "describedby", "href": "https://raw.githubusercontent.com/Open-Telecoms-Data/open-fibre-data-standard/0__3__0/schema/network-schema.json" } ] }, "featureType": "node" }, "geometry": { "type": "Point", "coordinates": [ 0.927515852349681, 6.429923371175861 ] } },
{ "type": "Feature", "properties": { "name": "Kpalime", "id": "7e828e1a-e98d-4690-9350-3cb58b8e1a5e", "network": { "id": "da7b4206-e35e-4d49-bd89-fdc37a35ca21", "name": "Togo Telecom", "links": [ { "rel": "describedby", "href": "https://raw.githubusercontent.com/Open-Telecoms-Data/open-fibre-data-standard/0__3__0/schema/network-schema.json" } ] }, "featureType": "node" }, "geometry": { "type": "Point", "coordinates": [ 0.633850281996682, 6.898173303878374 ] } },
{ "type": "Feature", "properties": { "name": "Kpele", "id": "fa2ffcf6-5ab1-4e45-9936-dab8dd6f0e52", "network": { "id": "da7b4206-e35e-4d49-bd89-fdc37a35ca21", "name": "Togo Telecom", "links": [ { "rel": "describedby", "href": "https://raw.githubusercontent.com/Open-Telecoms-Data/open-fibre-data-standard/0__3__0/schema/network-schema.json" } ] }, "featureType": "node" }, "geometry": { "type": "Point", "coordinates": [ 1.183102661999519, 6.857839399584094 ] } },
{ "type": "Feature", "properties": { "name": "Lome", "id": "bea02e6b-952d-4a8a-bc63-10ea900eedac", "network": { "id": "da7b4206-e35e-4d49-bd89-fdc37a35ca21", "name": "Togo Telecom", "links": [ { "rel": "describedby", "href": "https://raw.githubusercontent.com/Open-Telecoms-Data/open-fibre-data-standard/0__3__0/schema/network-schema.json" } ] }, "featureType": "node" }, "geometry": { "type": "Point", "coordinates": [ 1.222100891971793, 6.14192765754292 ] } },
{ "type": "Feature", "properties": { "name": "Niamtogou", "id": "987cad88-3853-4387-b360-b7d9ba6aaf69", "network": { "id": "da7b4206-e35e-4d49-bd89-fdc37a35ca21", "name": "Togo Telecom", "links": [ { "rel": "describedby", "href": "https://raw.githubusercontent.com/Open-Telecoms-Data/open-fibre-data-standard/0__3__0/schema/network-schema.json" } ] }, "featureType": "node" }, "geometry": { "type": "Point", "coordinates": [ 1.106319465077481, 9.762404969393966 ] } },
{ "type": "Feature", "properties": { "name": "Notse", "id": "deb07081-3c7b-400a-aaeb-7972b0e465a5", "network": { "id": "da7b4206-e35e-4d49-bd89-fdc37a35ca21", "name": "Togo Telecom", "links": [ { "rel": "describedby", "href": "https://raw.githubusercontent.com/Open-Telecoms-Data/open-fibre-data-standard/0__3__0/schema/network-schema.json" } ] }, "featureType": "node" }, "geometry": { "type": "Point", "coordinates": [ 1.171699005335026, 6.94805601613328 ] } },
{ "type": "Feature", "properties": { "name": "Nyamassila", "id": "87f0a74f-e405-48f9-b386-1d6e6c123e9e", "network": { "id": "da7b4206-e35e-4d49-bd89-fdc37a35ca21", "name": "Togo Telecom", "links": [ { "rel": "describedby", "href": "https://raw.githubusercontent.com/Open-Telecoms-Data/open-fibre-data-standard/0__3__0/schema/network-schema.json" } ] }, "featureType": "node" }, "geometry": { "type": "Point", "coordinates": [ 1.190702826724351, 7.987208084200718 ] } },
{ "type": "Feature", "properties": { "name": "Paratao", "id": "cb576151-f526-4ea8-8fea-d0a14b58ac29", "network": { "id": "da7b4206-e35e-4d49-bd89-fdc37a35ca21", "name": "Togo Telecom", "links": [ { "rel": "describedby", "href": "https://raw.githubusercontent.com/Open-Telecoms-Data/open-fibre-data-standard/0__3__0/schema/network-schema.json" } ] }, "featureType": "node" }, "geometry": { "type": "Point", "coordinates": [ 1.212865043234712, 8.954343231580623 ] } },
{ "type": "Feature", "properties": { "name": "Sokode", "id": "76118fb8-f35d-4dd8-917d-5ac7031be3c7", "network": { "id": "da7b4206-e35e-4d49-bd89-fdc37a35ca21", "name": "Togo Telecom", "links": [ { "rel": "describedby", "href": "https://raw.githubusercontent.com/Open-Telecoms-Data/open-fibre-data-standard/0__3__0/schema/network-schema.json" } ] }, "featureType": "node" }, "geometry": { "type": "Point", "coordinates": [ 1.13588463238695, 8.979040097494531 ] } },
{ "type": "Feature", "properties": { "name": "Sotouboua", "id": "668c098f-be28-488e-a06a-3f24bfb13078", "network": { "id": "da7b4206-e35e-4d49-bd89-fdc37a35ca21", "name": "Togo Telecom", "links": [ { "rel": "describedby", "href": "https://raw.githubusercontent.com/Open-Telecoms-Data/open-fibre-data-standard/0__3__0/schema/network-schema.json" } ] }, "featureType": "node" }, "geometry": { "type": "Point", "coordinates": [ 0.978631938464122, 8.565995676581329 ] } },
{ "type": "Feature", "properties": { "name": "Tandjouare", "id": "fef82598-8407-4541-bb76-bdc387340a4e", "network": { "id": "da7b4206-e35e-4d49-bd89-fdc37a35ca21", "name": "Togo Telecom", "links": [ { "rel": "describedby", "href": "https://raw.githubusercontent.com/Open-Telecoms-Data/open-fibre-data-standard/0__3__0/schema/network-schema.json" } ] }, "featureType": "node" }, "geometry": { "type": "Point", "coordinates": [ 0.210658509127064, 10.659033122234302 ] } },
{ "type": "Feature", "properties": { "name": "Afanyagan", "id": "36ae03d2-fe8a-4170-84a3-428d5ed11535", "network": { "id": "da7b4206-e35e-4d49-bd89-fdc37a35ca21", "name": "Togo Telecom", "links": [ { "rel": "describedby", "href": "https://raw.githubusercontent.com/Open-Telecoms-Data/open-fibre-data-standard/0__3__0/schema/network-schema.json" } ] }, "featureType": "node" }, "geometry": { "type": "Point", "coordinates": [ 1.640399288754954, 6.494640225857225 ] } },
{ "type": "Feature", "properties": { "name": "Aklakou", "id": "b41be020-79f4-41fa-965f-d48e999a5cb4", "network": { "id": "da7b4206-e35e-4d49-bd89-fdc37a35ca21", "name": "Togo Telecom", "links": [ { "rel": "describedby", "href": "https://raw.githubusercontent.com/Open-Telecoms-Data/open-fibre-data-standard/0__3__0/schema/network-schema.json" } ] }, "featureType": "node" }, "geometry": { "type": "Point", "coordinates": [ 1.713026517870429, 6.344360308571545 ] } },
{ "type": "Feature", "properties": { "name": "Anfoin", "id": "59ec3b74-863f-4ad8-919c-9f6d15fc85b4", "network": { "id": "da7b4206-e35e-4d49-bd89-fdc37a35ca21", "name": "Togo Telecom", "links": [ { "rel": "describedby", "href": "https://raw.githubusercontent.com/Open-Telecoms-Data/open-fibre-data-standard/0__3__0/schema/network-schema.json" } ] }, "featureType": "node" }, "geometry": { "type": "Point", "coordinates": [ 1.606495044862886, 6.331447931622034 ] } },
{ "type": "Feature", "properties": { "name": "Babiaille", "id": "91a3793a-d9a5-4315-a0db-c42d66dc2778", "network": { "id": "da7b4206-e35e-4d49-bd89-fdc37a35ca21", "name": "Togo Telecom", "links": [ { "rel": "describedby", "href": "https://raw.githubusercontent.com/Open-Telecoms-Data/open-fibre-data-standard/0__3__0/schema/network-schema.json" } ] }, "featureType": "node" }, "geometry": { "type": "Point", "coordinates": [ 0.700027023301458, 7.592294577400338 ] } },
{ "type": "Feature", "properties": { "name": "Badou", "id": "0d12c036-0f1c-4654-8bc4-c3d42e8786b0", "network": { "id": "da7b4206-e35e-4d49-bd89-fdc37a35ca21", "name": "Togo Telecom", "links": [ { "rel": "describedby", "href": "https://raw.githubusercontent.com/Open-Telecoms-Data/open-fibre-data-standard/0__3__0/schema/network-schema.json" } ] }, "featureType": "node" }, "geometry": { "type": "Point", "coordinates": [ 0.610956334351069, 7.585406744397499 ] } },
{ "type": "Feature", "properties": { "name": "Bafilo", "id": "6e928f3e-ffe0-4063-8ff6-e92abaf52959", "network": { "id": "da7b4206-e35e-4d49-bd89-fdc37a35ca21", "name": "Togo Telecom", "links": [ { "rel": "describedby", "href": "https://raw.githubusercontent.com/Open-Telecoms-Data/open-fibre-data-standard/0__3__0/schema/network-schema.json" } ] }, "featureType": "node" }, "geometry": { "type": "Point", "coordinates": [ 1.242620647041515, 9.350223030128678 ] } },
{ "type": "Feature", "properties": { "name": "Bandjeli", "id": "2446dcc1-6dde-463b-bb83-1c3d3527ed82", "network": { "id": "da7b4206-e35e-4d49-bd89-fdc37a35ca21", "name": "Togo Telecom", "links": [ { "rel": "describedby", "href": "https://raw.githubusercontent.com/Open-Telecoms-Data/open-fibre-data-standard/0__3__0/schema/network-schema.json" } ] }, "featureType": "node" }, "geometry": { "type": "Point", "coordinates": [ 0.622398741001036, 9.421634287435646 ] } },
{ "type": "Feature", "properties": { "name": "Dagou", "id": "d422c9d2-2bbe-480b-b9d3-5a78cbbc980b", "network": { "id": "da7b4206-e35e-4d49-bd89-fdc37a35ca21", "name": "Togo Telecom", "links": [ { "rel": "describedby", "href": "https://raw.githubusercontent.com/Open-Telecoms-Data/open-fibre-data-standard/0__3__0/schema/network-schema.json" } ] }, "featureType": "node" }, "geometry": { "type": "Point", "coordinates": [ 1.315227199246563, 8.055618072655193 ] } },
{ "type": "Feature", "properties": { "name": "Danyi Apéyemé", "id": "e810fb1b-e818-498f-80b4-b01daf884ff7", "network": { "id": "da7b4206-e35e-4d49-bd89-fdc37a35ca21", "name": "Togo Telecom", "links": [ { "rel": "describedby", "href": "https://raw.githubusercontent.com/Open-Telecoms-Data/open-fibre-data-standard/0__3__0/schema/network-schema.json" } ] }, "featureType": "node" }, "geometry": { "type": "Point", "coordinates": [ 0.694545772085398, 7.200913014057747 ] } },
{ "type": "Feature", "properties": { "name": "Djarkpanga", "id": "b72c3c63-afdf-4f2a-9637-4ba1d2241211", "network": { "id": "da7b4206-e35e-4d49-bd89-fdc37a35ca21", "name": "Togo Telecom", "links": [ { "rel": "describedby", "href": "https://raw.githubusercontent.com/Open-Telecoms-Data/open-fibre-data-standard/0__3__0/schema/network-schema.json" } ] }, "featureType": "node" }, "geometry": { "type": "Point", "coordinates": [ 0.5649761831407, 8.783378267560398 ] } },
{ "type": "Feature", "properties": { "name": "Dzogbetoe", "id": "7c82d009-9c09-4f35-87eb-06490318a349", "network": { "id": "da7b4206-e35e-4d49-bd89-fdc37a35ca21", "name": "Togo Telecom", "links": [ { "rel": "describedby", "href": "https://raw.githubusercontent.com/Open-Telecoms-Data/open-fibre-data-standard/0__3__0/schema/network-schema.json" } ] }, "featureType": "node" }, "geometry": { "type": "Point", "coordinates": [ 1.564895441577241, 6.481086283462618 ] } },
{ "type": "Feature", "properties": { "name": "Elavagnon", "id": "ab853b63-bca5-483a-868b-3ec8583a4d73", "network": { "id": "da7b4206-e35e-4d49-bd89-fdc37a35ca21", "name": "Togo Telecom", "links": [ { "rel": "describedby", "href": "https://raw.githubusercontent.com/Open-Telecoms-Data/open-fibre-data-standard/0__3__0/schema/network-schema.json" } ] }, "featureType": "node" }, "geometry": { "type": "Point", "coordinates": [ 1.300869855642739, 7.98792776828462 ] } },
{ "type": "Feature", "properties": { "name": "Goubi", "id": "2fccaef5-de91-4e69-9225-4a8e858ca71b", "network": { "id": "da7b4206-e35e-4d49-bd89-fdc37a35ca21", "name": "Togo Telecom", "links": [ { "rel": "describedby", "href": "https://raw.githubusercontent.com/Open-Telecoms-Data/open-fibre-data-standard/0__3__0/schema/network-schema.json" } ] }, "featureType": "node" }, "geometry": { "type": "Point", "coordinates": [ 1.466355168041484, 8.653364925156342 ] } },
{ "type": "Feature", "properties": { "name": "Guerin-Kouka", "id": "014d2edf-b485-4635-b2ba-8903a83235db", "network": { "id": "da7b4206-e35e-4d49-bd89-fdc37a35ca21", "name": "Togo Telecom", "links": [ { "rel": "describedby", "href": "https://raw.githubusercontent.com/Open-Telecoms-Data/open-fibre-data-standard/0__3__0/schema/network-schema.json" } ] }, "featureType": "node" }, "geometry": { "type": "Point", "coordinates": [ 0.611244980688437, 9.684003398004688 ] } },
{ "type": "Feature", "properties": { "name": "Kambole", "id": "6b488f69-c0c0-4436-8ef2-e96cc8005476", "network": { "id": "da7b4206-e35e-4d49-bd89-fdc37a35ca21", "name": "Togo Telecom", "links": [ { "rel": "describedby", "href": "https://raw.githubusercontent.com/Open-Telecoms-Data/open-fibre-data-standard/0__3__0/schema/network-schema.json" } ] }, "featureType": "node" }, "geometry": { "type": "Point", "coordinates": [ 1.595152055995752, 8.749052873712319 ] } },
{ "type": "Feature", "properties": { "name": "Kemerida", "id": "86887ead-a5b2-4314-83f3-8f0e3c047836", "network": { "id": "da7b4206-e35e-4d49-bd89-fdc37a35ca21", "name": "Togo Telecom", "links": [ { "rel": "describedby", "href": "https://raw.githubusercontent.com/Open-Telecoms-Data/open-fibre-data-standard/0__3__0/schema/network-schema.json" } ] }, "featureType": "node" }, "geometry": { "type": "Point", "coordinates": [ 1.360376108876056, 9.670579175299014 ] } },
{ "type": "Feature", "properties": { "name": "Ketao", "id": "f4f84573-dad7-41bf-8f81-dcfcf55bf0de", "network": { "id": "da7b4206-e35e-4d49-bd89-fdc37a35ca21", "name": "Togo Telecom", "links": [ { "rel": "describedby", "href": "https://raw.githubusercontent.com/Open-Telecoms-Data/open-fibre-data-standard/0__3__0/schema/network-schema.json" } ] }, "featureType": "node" }, "geometry": { "type": "Point", "coordinates": [ 1.309784300250107, 9.658284447444707 ] } },
{ "type": "Feature", "properties": { "name": "Klabe Ofokpa", "id": "12e31024-5414-44b1-9d62-8b4ff1a9d9f5", "network": { "id": "da7b4206-e35e-4d49-bd89-fdc37a35ca21", "name": "Togo Telecom", "links": [ { "rel": "describedby", "href": "https://raw.githubusercontent.com/Open-Telecoms-Data/open-fibre-data-standard/0__3__0/schema/network-schema.json" } ] }, "featureType": "node" }, "geometry": { "type": "Point", "coordinates": [ 0.763111085848139, 7.605979652469393 ] } },
{ "type": "Feature", "properties": { "name": "Korbongou", "id": "36dc9546-9bbd-4189-8032-7bb204d2735a", "network": { "id": "da7b4206-e35e-4d49-bd89-fdc37a35ca21", "name": "Togo Telecom", "links": [ { "rel": "describedby", "href": "https://raw.githubusercontent.com/Open-Telecoms-Data/open-fibre-data-standard/0__3__0/schema/network-schema.json" } ] }, "featureType": "node" }, "geometry": { "type": "Point", "coordinates": [ 0.318893405460772, 10.910790324428952 ] } },
{ "type": "Feature", "properties": { "name": "Kougnohou", "id": "11a72baa-083c-4312-a2cf-ad52c44bd30c", "network": { "id": "da7b4206-e35e-4d49-bd89-fdc37a35ca21", "name": "Togo Telecom", "links": [ { "rel": "describedby", "href": "https://raw.githubusercontent.com/Open-Telecoms-Data/open-fibre-data-standard/0__3__0/schema/network-schema.json" } ] }, "featureType": "node" }, "geometry": { "type": "Point", "coordinates": [ 0.78878490750174, 7.655069775292908 ] } },
{ "type": "Feature", "properties": { "name": "Koussountou", "id": "4efb238a-9f28-464a-9ab6-2d4cffdf91d7", "network": { "id": "da7b4206-e35e-4d49-bd89-fdc37a35ca21", "name": "Togo Telecom", "links": [ { "rel": "describedby", "href": "https://raw.githubusercontent.com/Open-Telecoms-Data/open-fibre-data-standard/0__3__0/schema/network-schema.json" } ] }, "featureType": "node" }, "geometry": { "type": "Point", "coordinates": [ 1.516787548188897, 8.832685418487458 ] } },
{ "type": "Feature", "properties": { "name": "Mandouri", "id": "735df260-aa92-4a44-a6be-0b220cdcdae3", "network": { "id": "da7b4206-e35e-4d49-bd89-fdc37a35ca21", "name": "Togo Telecom", "links": [ { "rel": "describedby", "href": "https://raw.githubusercontent.com/Open-Telecoms-Data/open-fibre-data-standard/0__3__0/schema/network-schema.json" } ] }, "featureType": "node" }, "geometry": { "type": "Point", "coordinates": [ 0.816321824422674, 10.848767013644915 ] } },
{ "type": "Feature", "properties": { "name": "Mango", "id": "569cbabb-14e1-42b8-b0a8-8bde9c5f703f", "network": { "id": "da7b4206-e35e-4d49-bd89-fdc37a35ca21", "name": "Togo Telecom", "links": [ { "rel": "describedby", "href": "https://raw.githubusercontent.com/Open-Telecoms-Data/open-fibre-data-standard/0__3__0/schema/network-schema.json" } ] }, "featureType": "node" }, "geometry": { "type": "Point", "coordinates": [ 0.46991707638437, 10.352365963919913 ] } },
{ "type": "Feature", "properties": { "name": "Moretan?", "id": "cd98af0a-f96a-4f2c-87e3-5b3465eee16c", "network": { "id": "da7b4206-e35e-4d49-bd89-fdc37a35ca21", "name": "Togo Telecom", "links": [ { "rel": "describedby", "href": "https://raw.githubusercontent.com/Open-Telecoms-Data/open-fibre-data-standard/0__3__0/schema/network-schema.json" } ] }, "featureType": "node" }, "geometry": { "type": "Point", "coordinates": [ 1.354884139807291, 8.10631958996715 ] } },
{ "type": "Feature", "properties": { "name": "Naki-Est", "id": "143b98d3-e4b2-4ab7-ae85-ae749ad68588", "network": { "id": "da7b4206-e35e-4d49-bd89-fdc37a35ca21", "name": "Togo Telecom", "links": [ { "rel": "describedby", "href": "https://raw.githubusercontent.com/Open-Telecoms-Data/open-fibre-data-standard/0__3__0/schema/network-schema.json" } ] }, "featureType": "node" }, "geometry": { "type": "Point", "coordinates": [ 0.361238141160765, 10.724654826535952 ] } },
{ "type": "Feature", "properties": { "name": "Pagouda", "id": "1b24720e-989b-4373-80d6-2f0c76d112d3", "network": { "id": "da7b4206-e35e-4d49-bd89-fdc37a35ca21", "name": "Togo Telecom", "links": [ { "rel": "describedby", "href": "https://raw.githubusercontent.com/Open-Telecoms-Data/open-fibre-data-standard/0__3__0/schema/network-schema.json" } ] }, "featureType": "node" }, "geometry": { "type": "Point", "coordinates": [ 1.326122698284805, 9.753692162945065 ] } },
{ "type": "Feature", "properties": { "name": "Passoua", "id": "cc1d287d-83f4-4e62-9635-4681b0769309", "network": { "id": "da7b4206-e35e-4d49-bd89-fdc37a35ca21", "name": "Togo Telecom", "links": [ { "rel": "describedby", "href": "https://raw.githubusercontent.com/Open-Telecoms-Data/open-fibre-data-standard/0__3__0/schema/network-schema.json" } ] }, "featureType": "node" }, "geometry": { "type": "Point", "coordinates": [ 1.292552593704317, 9.054610338517646 ] } },
{ "type": "Feature", "properties": { "name": "Ponio", "id": "3598d1bd-ced3-46c4-a753-34533e1180cb", "network": { "id": "da7b4206-e35e-4d49-bd89-fdc37a35ca21", "name": "Togo Telecom", "links": [ { "rel": "describedby", "href": "https://raw.githubusercontent.com/Open-Telecoms-Data/open-fibre-data-standard/0__3__0/schema/network-schema.json" } ] }, "featureType": "node" }, "geometry": { "type": "Point", "coordinates": [ 0.505484937519204, 10.974768445627904 ] } },
{ "type": "Feature", "properties": { "name": "Sadori", "id": "2dfb1c5b-2f64-4c23-b61f-1f25c3fd6ad7", "network": { "id": "da7b4206-e35e-4d49-bd89-fdc37a35ca21", "name": "Togo Telecom", "links": [ { "rel": "describedby", "href": "https://raw.githubusercontent.com/Open-Telecoms-Data/open-fibre-data-standard/0__3__0/schema/network-schema.json" } ] }, "featureType": "node" }, "geometry": { "type": "Point", "coordinates": [ 0.467038893828986, 10.288991369930793 ] } },
{ "type": "Feature", "properties": { "name": "Tablibo", "id": "6c4093ae-3325-43c6-a752-9d05732fc7df", "network": { "id": "da7b4206-e35e-4d49-bd89-fdc37a35ca21", "name": "Togo Telecom", "links": [ { "rel": "describedby", "href": "https://raw.githubusercontent.com/Open-Telecoms-Data/open-fibre-data-standard/0__3__0/schema/network-schema.json" } ] }, "featureType": "node" }, "geometry": { "type": "Point", "coordinates": [ 1.497983940666113, 6.58596662211274 ] } },
{ "type": "Feature", "properties": { "name": "Takpamba", "id": "7057aa81-284b-4be0-a3de-5c5229b344e8", "network": { "id": "da7b4206-e35e-4d49-bd89-fdc37a35ca21", "name": "Togo Telecom", "links": [ { "rel": "describedby", "href": "https://raw.githubusercontent.com/Open-Telecoms-Data/open-fibre-data-standard/0__3__0/schema/network-schema.json" } ] }, "featureType": "node" }, "geometry": { "type": "Point", "coordinates": [ 0.572510162029709, 9.967513827629821 ] } },
{ "type": "Feature", "properties": { "name": "Tchamba", "id": "10dd51a8-fdaf-4db8-84a8-dbf7df4a4d67", "network": { "id": "da7b4206-e35e-4d49-bd89-fdc37a35ca21", "name": "Togo Telecom", "links": [ { "rel": "describedby", "href": "https://raw.githubusercontent.com/Open-Telecoms-Data/open-fibre-data-standard/0__3__0/schema/network-schema.json" } ] }, "featureType": "node" }, "geometry": { "type": "Point", "coordinates": [ 1.420332895064027, 9.026176766588032 ] } },
{ "type": "Feature", "properties": { "name": "Tchanaga", "id": "77328fff-85e0-4048-a478-6e3ff1b5bab7", "network": { "id": "da7b4206-e35e-4d49-bd89-fdc37a35ca21", "name": "Togo Telecom", "links": [ { "rel": "describedby", "href": "https://raw.githubusercontent.com/Open-Telecoms-Data/open-fibre-data-standard/0__3__0/schema/network-schema.json" } ] }, "featureType": "node" }, "geometry": { "type": "Point", "coordinates": [ 0.492178927033174, 10.492371964128585 ] } },
{ "type": "Feature", "properties": { "name": "Tohoun", "id": "524ca92f-643a-4558-9d94-b95c6a889ae2", "network": { "id": "da7b4206-e35e-4d49-bd89-fdc37a35ca21", "name": "Togo Telecom", "links": [ { "rel": "describedby", "href": "https://raw.githubusercontent.com/Open-Telecoms-Data/open-fibre-data-standard/0__3__0/schema/network-schema.json" } ] }, "featureType": "node" }, "geometry": { "type": "Point", "coordinates": [ 1.615980733822495, 7.023441294650744 ] } },
{ "type": "Feature", "properties": { "name": "Tsevie", "id": "8966b870-af62-4438-a2e9-447fac84558c", "network": { "id": "da7b4206-e35e-4d49-bd89-fdc37a35ca21", "name": "Togo Telecom", "links": [ { "rel": "describedby", "href": "https://raw.githubusercontent.com/Open-Telecoms-Data/open-fibre-data-standard/0__3__0/schema/network-schema.json" } ] }, "featureType": "node" }, "geometry": { "type": "Point", "coordinates": [ 1.213541594788373, 6.432064129272137 ] } },
{ "type": "Feature", "properties": { "name": "Vogan", "id": "f28d0c25-6f60-4ed7-ad19-519c127f4d8b", "network": { "id": "da7b4206-e35e-4d49-bd89-fdc37a35ca21", "name": "Togo Telecom", "links": [ { "rel": "describedby", "href": "https://raw.githubusercontent.com/Open-Telecoms-Data/open-fibre-data-standard/0__3__0/schema/network-schema.json" } ] }, "featureType": "node" }, "geometry": { "type": "Point", "coordinates": [ 1.531401329223512, 6.335441390704617 ] } },
{ "type": "Feature", "properties": { "name": "Auto generated missing node", "id": "13c09a5f-ef67-45a7-9c75-36f9afe94df0", "network": { "id": "da7b4206-e35e-4d49-bd89-fdc37a35ca21", "name": "Togo Telecom", "links": [ { "rel": "describedby", "href": "https://raw.githubusercontent.com/Open-Telecoms-Data/open-fibre-data-standard/0__3__0/schema/network-schema.json" } ] }, "featureType": "node" }, "geometry": { "type": "Point", "coordinates": [ 1.136186927066074, 8.984314709386135 ] } },
{ "type": "Feature", "properties": { "name": "Auto generated missing node", "id": "061f3c50-7812-4e5d-a9b7-fcdf587ebdb2", "network": { "id": "da7b4206-e35e-4d49-bd89-fdc37a35ca21", "name": "Togo Telecom", "links": [ { "rel": "describedby", "href": "https://raw.githubusercontent.com/Open-Telecoms-Data/open-fibre-data-standard/0__3__0/schema/network-schema.json" } ] }, "featureType": "node" }, "geometry": { "type": "Point", "coordinates": [ 1.212348222284196, 6.140879034944887 ] } },
{ "type": "Feature", "properties": { "name": "Auto generated missing node", "id": "5470030f-4af5-4669-adc0-37663ed4c6d4", "network": { "id": "da7b4206-e35e-4d49-bd89-fdc37a35ca21", "name": "Togo Telecom", "links": [ { "rel": "describedby", "href": "https://raw.githubusercontent.com/Open-Telecoms-Data/open-fibre-data-standard/0__3__0/schema/network-schema.json" } ] }, "featureType": "node" }, "geometry": { "type": "Point", "coordinates": [ 0.014108971766295, 11.10635345902384 ] } },
{ "type": "Feature", "properties": { "name": "Auto generated missing node", "id": "dc909924-d337-43da-ad21-92271c0d4f9a", "network": { "id": "da7b4206-e35e-4d49-bd89-fdc37a35ca21", "name": "Togo Telecom", "links": [ { "rel": "describedby", "href": "https://raw.githubusercontent.com/Open-Telecoms-Data/open-fibre-data-standard/0__3__0/schema/network-schema.json" } ] }, "featureType": "node" }, "geometry": { "type": "Point", "coordinates": [ 1.14365484209062, 7.516056040015307 ] } },
{ "type": "Feature", "properties": { "name": "Auto generated missing node", "id": "03c4c90d-3dd1-4b8e-bb86-d7c41f21846e", "network": { "id": "da7b4206-e35e-4d49-bd89-fdc37a35ca21", "name": "Togo Telecom", "links": [ { "rel": "describedby", "href": "https://raw.githubusercontent.com/Open-Telecoms-Data/open-fibre-data-standard/0__3__0/schema/network-schema.json" } ] }, "featureType": "node" }, "geometry": { "type": "Point", "coordinates": [ 0.20569416929449, 10.873129865758649 ] } },
{ "type": "Feature", "properties": { "name": "Auto generated missing node", "id": "e0b48934-9168-4591-9ce8-50cdf9f59c7c", "network": { "id": "da7b4206-e35e-4d49-bd89-fdc37a35ca21", "name": "Togo Telecom", "links": [ { "rel": "describedby", "href": "https://raw.githubusercontent.com/Open-Telecoms-Data/open-fibre-data-standard/0__3__0/schema/network-schema.json" } ] }, "featureType": "node" }, "geometry": { "type": "Point", "coordinates": [ 0.330194344806571, 10.90901355874915 ] } },
{ "type": "Feature", "properties": { "name": "Auto generated missing node", "id": "09eaecb0-3882-49e4-8afe-8727e900e58a", "network": { "id": "da7b4206-e35e-4d49-bd89-fdc37a35ca21", "name": "Togo Telecom", "links": [ { "rel": "describedby", "href": "https://raw.githubusercontent.com/Open-Telecoms-Data/open-fibre-data-standard/0__3__0/schema/network-schema.json" } ] }, "featureType": "node" }, "geometry": { "type": "Point", "coordinates": [ 0.470012443618017, 10.36039452534305 ] } },
{ "type": "Feature", "properties": { "name": "Auto generated missing node", "id": "4c8253d2-e196-462e-9c89-d78f1e77b49c", "network": { "id": "da7b4206-e35e-4d49-bd89-fdc37a35ca21", "name": "Togo Telecom", "links": [ { "rel": "describedby", "href": "https://raw.githubusercontent.com/Open-Telecoms-Data/open-fibre-data-standard/0__3__0/schema/network-schema.json" } ] }, "featureType": "node" }, "geometry": { "type": "Point", "coordinates": [ 0.56032652988812, 10.74859290222563 ] } },
{ "type": "Feature", "properties": { "name": "Auto generated missing node", "id": "dfce3662-fde7-437b-a36b-a80bca61e45b", "network": { "id": "da7b4206-e35e-4d49-bd89-fdc37a35ca21", "name": "Togo Telecom", "links": [ { "rel": "describedby", "href": "https://raw.githubusercontent.com/Open-Telecoms-Data/open-fibre-data-standard/0__3__0/schema/network-schema.json" } ] }, "featureType": "node" }, "geometry": { "type": "Point", "coordinates": [ 0.806822213162859, 9.455705675387195 ] } },
{ "type": "Feature", "properties": { "name": "Auto generated missing node", "id": "7db75208-5fb0-4a2e-b9a0-a97d0f82bbd9", "network": { "id": "da7b4206-e35e-4d49-bd89-fdc37a35ca21", "name": "Togo Telecom", "links": [ { "rel": "describedby", "href": "https://raw.githubusercontent.com/Open-Telecoms-Data/open-fibre-data-standard/0__3__0/schema/network-schema.json" } ] }, "featureType": "node" }, "geometry": { "type": "Point", "coordinates": [ 1.316241351490781, 9.660735322799244 ] } },
{ "type": "Feature", "properties": { "name": "Auto generated missing node", "id": "23ea3124-3fca-4eca-bf85-720fd3f9e0f4", "network": { "id": "da7b4206-e35e-4d49-bd89-fdc37a35ca21", "name": "Togo Telecom", "links": [ { "rel": "describedby", "href": "https://raw.githubusercontent.com/Open-Telecoms-Data/open-fibre-data-standard/0__3__0/schema/network-schema.json" } ] }, "featureType": "node" }, "geometry": { "type": "Point", "coordinates": [ 1.181526581211598, 9.541852227734335 ] } },
{ "type": "Feature", "properties": { "name": "Auto generated missing node", "id": "ba25a4aa-741a-47b6-97bb-19148a912d69", "network": { "id": "da7b4206-e35e-4d49-bd89-fdc37a35ca21", "name": "Togo Telecom", "links": [ { "rel": "describedby", "href": "https://raw.githubusercontent.com/Open-Telecoms-Data/open-fibre-data-standard/0__3__0/schema/network-schema.json" } ] }, "featureType": "node" }, "geometry": { "type": "Point", "coordinates": [ 1.041564741603327, 9.957809724762614 ] } },
{ "type": "Feature", "properties": { "name": "Auto generated missing node", "id": "2e7f56a0-156f-49e7-84b5-57bcdf11f09a", "network": { "id": "da7b4206-e35e-4d49-bd89-fdc37a35ca21", "name": "Togo Telecom", "links": [ { "rel": "describedby", "href": "https://raw.githubusercontent.com/Open-Telecoms-Data/open-fibre-data-standard/0__3__0/schema/network-schema.json" } ] }, "featureType": "node" }, "geometry": { "type": "Point", "coordinates": [ 0.976628839919076, 8.572008199752402 ] } },
{ "type": "Feature", "properties": { "name": "Auto generated missing node", "id": "848f8db6-a04f-4f33-bf5b-6dabeda56224", "network": { "id": "da7b4206-e35e-4d49-bd89-fdc37a35ca21", "name": "Togo Telecom", "links": [ { "rel": "describedby", "href": "https://raw.githubusercontent.com/Open-Telecoms-Data/open-fibre-data-standard/0__3__0/schema/network-schema.json" } ] }, "featureType": "node" }, "geometry": { "type": "Point", "coordinates": [ 0.899974358040665, 7.461319248020908 ] } },
{ "type": "Feature", "properties": { "name": "Auto generated missing node", "id": "9b672d09-a02d-420d-9b79-a50d4bec9c42", "network": { "id": "da7b4206-e35e-4d49-bd89-fdc37a35ca21", "name": "Togo Telecom", "links": [ { "rel": "describedby", "href": "https://raw.githubusercontent.com/Open-Telecoms-Data/open-fibre-data-standard/0__3__0/schema/network-schema.json" } ] }, "featureType": "node" }, "geometry": { "type": "Point", "coordinates": [ 0.728810142044263, 7.13056089098179 ] } },
{ "type": "Feature", "properties": { "name": "Auto generated missing node", "id": "9eebe222-28bd-485b-b7f5-93764498240a", "network": { "id": "da7b4206-e35e-4d49-bd89-fdc37a35ca21", "name": "Togo Telecom", "links": [ { "rel": "describedby", "href": "https://raw.githubusercontent.com/Open-Telecoms-Data/open-fibre-data-standard/0__3__0/schema/network-schema.json" } ] }, "featureType": "node" }, "geometry": { "type": "Point", "coordinates": [ 0.791071959834437, 7.657208259586019 ] } }
]
}
